"City, Country",AQI_PM2_5,PM2_5,PM10,wind_speed,humidity,precipitation,Soiling_Rate,lat,lng
"Abidjan, CI",68.6740947075209,67.71671388101983,0.0,3.118356164383562,89.66027397260274,0.0,0.05,5.32035685,-4.01610708
"Abu Dhabi, AE",106.82789317507418,0.0,0.0,0.0,0.0,0.0,0.104,24.45707321,54.37706375
"Accra, GH",74.25903614457832,73.39263803680981,0.0,4.06515580736544,81.60311614730878,17.516666666666666,0.059,5.55710983,-0.20123801
"Adana, TR",71.96765498652292,0.0,0.0,0.0,0.0,0.0,0.055,36.98371887,35.32981873
"Adapazarı, TR",67.4177897574124,0.0,0.0,0.0,0.0,0.0,0.049,40.78300095,30.39999962
"Addis Ababa, ET",78.06944444444444,78.45352112676056,0.0,3.361329305135951,60.2030303030303,0.1,0.065,9.01079369,38.76125336
"Adelaide, AU",18.69613259668508,18.571428571428573,12.9187675070028,4.639118457300276,65.31432506887053,40.64124293785311,0.001,-34.92869186,138.60101318
"Aguascalientes, MX",81.81408450704225,0.0,0.0,0.0,0.0,0.0,0.07,21.87961197,-102.29522705
"Akita, JP",32.07567567567568,32.1510989010989,9.057692307692308,3.7304109589041095,75.74054794520548,52.050511945392486,0.012,39.69408035,140.11254883
"Albuquerque, US",22.393530997304584,22.583561643835612,18.972602739726028,3.0545205479452058,40.17041095890411,0.0,0.004,35.08424759,-106.64923859
"Algiers, DZ",62.17254901960784,0.0,0.0,0.0,0.0,0.0,0.042,36.77536011,3.06018806
"Almaty, KZ",88.2991452991453,0.0,0.0,0.0,0.0,0.0,0.08,43.23639297,76.94572449
"Amiens, FR",45.080691642651296,0.0,0.0,0.0,0.0,0.0,0.022,49.89389038,2.29422688
"Amsterdam, NL",36.38814016172507,36.48219178082192,15.484931506849316,2.9810958904109586,78.59917808219178,0.0,0.015,52.37316513,4.89065981
"Andong, KR",58.01617250673854,0.0,0.0,0.0,0.0,0.0,0.036,36.56591797,128.7250061
"Ankara, TR",56.95956873315364,0.0,0.0,0.0,0.0,0.0,0.033,39.89651871,32.86197281
"Antakya, TR",75.36388140161725,0.0,0.0,0.0,0.0,0.0,0.061,36.88639069,30.71048737
"Antwerpen, BE",40.32154340836013,0.0,0.0,0.0,0.0,0.0,0.018,51.21648026,4.42319584
"Anyang, CN",111.08355795148248,0.0,0.0,0.0,0.0,0.0,0.111,36.09804916,114.39273071
"Arāk, IR",95.2638036809816,0.0,0.0,0.0,0.0,0.0,0.09,34.08652115,49.68884277
"Ashdod, IL",56.2027397260274,0.0,0.0,0.0,0.0,0.0,0.033,31.7977314,34.65299225
"Ashgabat, TM",65.71818181818182,0.0,0.0,0.0,0.0,0.0,0.046,37.94046402,58.38234711
"Ashkelon, IL",56.53168044077135,0.0,0.0,0.0,0.0,0.0,0.033,31.66448784,34.57301712
"Athens, GR",54.95628415300546,0.0,0.0,0.0,0.0,0.0,0.03,37.97533417,23.73614883
"Atlanta, US",38.57417582417583,38.712290502793294,16.6731843575419,1.1912087912087912,63.43095890410959,0.0,0.016,33.7485466,-84.39150238
"Auckland, NZ",22.37082066869301,0.0,0.0,0.0,0.0,0.0,0.004,-36.89349365,174.70991516
"Austin, US",33.84905660377358,33.37808219178082,0.0,2.8494318181818183,64.52082191780822,0.0,0.013,30.26497841,-97.74659729
"Baghdad, IQ",152.8263305322129,153.0940170940171,0.0,3.586149584487535,36.02714681440443,0.0,0.166,33.30617142,44.38722229
"Baltimore, US",31.62803234501348,31.432876712328767,12.340845070422535,1.872328767123288,73.15315068493152,0.0,0.011,39.29044342,-76.61233521
"Balıkesir, TR",54.00808625336927,0.0,0.0,0.0,0.0,0.0,0.03,39.65072632,27.87975502
"Bamako, ML",118.35051546391752,118.92631578947368,0.0,2.38099173553719,52.05785123966942,0.0,0.12,12.6493187,-8.00033665
"Bandar Abbas, IR",75.62085308056872,0.0,0.0,0.0,0.0,0.0,0.061,27.17934608,56.27814102
"Bangkok, TH",69.75202156334232,0.0,0.0,0.0,0.0,0.0,0.052,13.75395775,100.50224304
"Barcelona, ES",44.00677966101695,0.0,0.0,0.0,0.0,0.0,0.021,41.38299942,2.18300009
"Beijing, CN",78.14824797843666,0.0,0.0,0.0,0.0,0.0,0.065,39.9078064,116.39758301
"Belfast, GB",30.43783783783784,30.324175824175825,13.175342465753424,3.9336986301369863,78.78904109589041,0.0,0.01,54.59726715,-5.93010902
"Belgrade, RS",64.35309973045823,63.52876712328767,25.567123287671237,1.881095890410959,67.55671232876712,0.0,0.045,44.81506729,20.46047401
"Bengaluru, IN",90.58791208791207,0.0,0.0,0.0,0.0,0.0,0.083,12.97674656,77.57527924
"Bergen, NO",20.80540540540541,0.0,0.0,0.0,0.0,0.0,0.003,60.38804626,5.33185816
"Berlin, DE",44.47708894878706,0.0,0.0,0.0,0.0,0.0,0.021,52.50147247,13.40231705
"Besançon, FR",31.93628808864266,0.0,0.0,0.0,0.0,0.0,0.011,47.24126816,6.02553082
"Bhopal, IN",104.198347107438,0.0,0.0,0.0,0.0,0.0,0.102,23.13952637,77.40857697
"Bilbao, ES",39.71967654986523,0.0,0.0,0.0,0.0,0.0,0.017,43.25696182,-2.92346001
"Biratnagar, NP",78.93006993006993,78.86476868327402,29.68683274021352,1.0084142394822009,87.8705501618123,0.0,0.065,26.46020126,87.28033447
"Birmingham, GB",35.26954177897574,35.40547945205479,14.734246575342466,3.022739726027398,83.03835616438356,0.0,0.014,52.48289871,-1.89346194
"Bishkek, KG",75.88439306358381,75.13823529411765,0.0,2.3725761772853184,63.35595567867036,0.0,0.061,42.87778854,74.60668945
"Bloemfontein, ZA",68.37222222222222,0.0,0.0,0.0,0.0,0.0,0.05,-29.11812973,26.22309113
"Bogotá, CO",56.25606469002695,56.07123287671233,26.5068870523416,1.384109589041096,70.59808219178082,0.4570032573289903,0.033,4.65346479,-74.08364868
"Boise, US",29.159029649595688,29.22465753424657,21.65084745762712,1.0419825072886295,60.26328767123288,0.0,0.009,43.61579132,-116.20157623
"Bologna, IT",49.810810810810814,0.0,0.0,0.0,0.0,0.0,0.024,44.49419022,11.34651947
"Bordeaux, FR",35.30958904109589,0.0,0.0,0.0,0.0,0.0,0.014,44.83499527,-0.575495
"Boston, US",28.29380053908356,28.164383561643834,19.384615384615383,4.109315068493151,69.7358904109589,0.0,0.009,42.35899353,-71.0586319
"Bratislava, SK",44.9245283018868,44.6958904109589,16.55068493150685,2.372307692307692,63.28958904109589,0.0,0.021,48.14640045,17.10687828
"Breda, NL",39.91891891891892,40.17032967032967,19.07945205479452,3.906301369863014,76.55698630136985,0.0,0.017,51.58931732,4.7744751
"Brescia, IT",59.78048780487805,0.0,0.0,0.0,0.0,0.0,0.037,45.53983688,10.22295666
"Brisbane, AU",21.56639566395664,21.60606060606061,12.683195592286502,1.6460055096418733,70.27561643835617,2.968461538461539,0.004,-27.46777916,153.02610779
"Bristol, GB",39.51219512195122,39.69972451790633,16.683195592286502,2.584931506849315,80.39342465753424,0.0,0.017,51.45531464,-2.59190202
"Brno, CZ",49.27493261455525,0.0,0.0,0.0,0.0,0.0,0.024,49.19205093,16.6131916
"Brooklyn, US",29.242587601078167,28.964383561643835,0.0,3.3273972602739725,63.09808219178081,0.0,0.009,40.69252777,-73.99099731
"Brussels, BE",38.56230031948882,0.0,0.0,0.0,0.0,0.0,0.016,50.84553528,4.35570192
"Bucharest, RO",50.82479784366577,0.0,0.0,0.0,0.0,0.0,0.025,44.44131851,26.08756256
"Budapest, HU",43.2852233676976,42.88111888111888,16.79020979020979,2.9378839590443686,60.59180887372014,39.24324324324325,0.02,47.48395157,19.10762405
"Buenos Aires, AR",38.88817891373802,0.0,0.0,0.0,0.0,0.0,0.016,-34.60756683,-58.43708801
"Burgos, ES",24.0,0.0,0.0,0.0,0.0,0.0,0.006,42.34089279,-3.69976211
"Bursa, TR",81.57681940700809,0.0,0.0,0.0,0.0,0.0,0.07,40.18578339,29.05666161
"Busan, KR",53.22641509433962,0.0,0.0,0.0,0.0,0.0,0.028,35.09700012,129.00810242
"Bydgoszcz, PL",44.450819672131146,0.0,0.0,0.0,0.0,0.0,0.021,53.12112808,17.99296761
"Caen, FR",31.56786703601108,0.0,0.0,0.0,0.0,0.0,0.011,49.18466187,-0.360264
"Calama, CL",26.504043126684635,0.0,0.0,0.0,0.0,0.0,0.007,-22.4623909,-68.92721558
"Calgary, CA",24.18598382749326,24.2054794520548,0.0,2.58027397260274,59.15506849315068,0.0,0.006,51.04730606,-114.05796814
"Canberra, AU",20.973045822102424,21.063013698630137,6.652054794520548,3.2353424657534244,75.90767123287672,15.550467289719627,0.003,-35.29843903,149.13453674
"Cape Town, ZA",41.308457711442784,0.0,0.0,0.0,0.0,0.0,0.018,-33.92710876,18.42006111
"Cardiff, GB",40.73315363881402,40.90684931506849,14.484931506849316,2.273150684931507,78.20246575342466,0.0,0.018,51.48130798,-3.18049788
"Castelló de la Plana, ES",20.07356948228883,0.0,0.0,0.0,0.0,0.0,0.003,39.98603821,-0.03607
"Chandigarh, IN",130.25,0.0,0.0,0.0,0.0,0.0,0.134,30.73335075,76.77903748
"Changchun, CN",76.02156334231806,0.0,0.0,0.0,0.0,0.0,0.062,43.81665802,125.32362366
"Changsha, CN",99.08086253369272,0.0,0.0,0.0,0.0,0.0,0.096,28.22805977,112.93891907
"Changwon, KR",51.13477088948787,0.0,0.0,0.0,0.0,0.0,0.026,35.27082825,128.66305542
"Changzhou, CN",90.15363881401618,0.0,0.0,0.0,0.0,0.0,0.083,31.81062126,119.97442627
"Charleroi, BE",30.246794871794872,0.0,0.0,0.0,0.0,0.0,0.01,50.41146088,4.44424009
"Charlotte, US",32.73854447439353,32.78904109589041,11.984177215189874,1.9728767123287672,69.57917808219179,0.0,0.012,35.2237854,-80.84114075
"Chengdu, CN",102.71159029649596,0.0,0.0,0.0,0.0,0.0,0.099,30.5722599,104.06651306
"Chennai, IN",83.3288409703504,0.0,0.0,0.0,0.0,0.0,0.073,13.06695557,80.16930389
"Cheongju-si, KR",64.83288409703503,0.0,0.0,0.0,0.0,0.0,0.045,36.63299942,127.48300171
"Chiang Mai, TH",70.71590296495957,0.0,0.0,0.0,0.0,0.0,0.054,18.78965569,98.98439789
"Chiba, JP",33.857142857142854,33.84931506849315,11.572602739726028,2.3893150684931506,68.32849315068493,53.384974093264255,0.013,35.58037567,140.11346436
"Chicago, US",33.17250673854448,32.92876712328767,16.03835616438356,3.504657534246575,69.38328767123288,0.0036363636363636,0.013,41.8832283,-87.63240051
"Chillán, CL",49.16711590296496,0.0,0.0,0.0,0.0,0.0,0.024,-36.60666275,-72.10331726
"Chon Buri, TH",59.064690026954175,0.0,0.0,0.0,0.0,0.0,0.037,13.19523335,101.20563507
"Chongqing, CN",89.42857142857143,0.0,0.0,0.0,0.0,0.0,0.081,29.56274986,106.55180359
"Christchurch, NZ",24.51212938005391,0.0,0.0,0.0,0.0,0.0,0.006,-43.51400757,172.59701538
"Chuncheon, KR",53.24258760107816,0.0,0.0,0.0,0.0,0.0,0.028,37.86963272,127.73867798
"Clermont-Ferrand, FR",35.98365122615804,0.0,0.0,0.0,0.0,0.0,0.014,45.77720642,3.0825181
"Colombo, LK",67.45514950166113,0.0,0.0,0.0,0.0,0.0,0.049,6.93874693,79.85411072
"Columbus, US",31.65498652291105,31.58082191780822,0.0,4.15123287671233,64.9068493150685,0.0,0.011,39.96276093,-82.99629211
"Conakry, GN",122.33333333333331,0.0,0.0,0.0,0.0,0.0,0.124,9.51706028,-13.69984341
"Concepción, CL",46.46630727762803,0.0,0.0,0.0,0.0,0.0,0.022,-36.82707977,-73.05023956
"Copenhagen, DK",32.45892351274787,32.19308357348703,20.310249307479225,3.955238095238095,74.26112759643917,0.0,0.012,55.67575836,12.56902313
"Coventry, GB",32.25876010781671,32.42465753424658,12.47945205479452,1.849444444444444,76.50383561643837,0.0,0.012,52.40631485,-1.50851703
"Cuernavaca, MX",64.32520325203252,0.0,0.0,0.0,0.0,0.0,0.045,18.89122772,-99.2234726
"Córdoba, ES",49.78125,0.0,0.0,0.0,0.0,0.0,0.024,37.88472366,-4.77912712
"Daegu, KR",55.76549865229111,0.0,0.0,0.0,0.0,0.0,0.031,35.86873627,128.60502625
"Daejeon, KR",57.08625336927224,0.0,0.0,0.0,0.0,0.0,0.034,36.33010101,127.42246246
"Dallas, US",31.73566878980892,31.503246753246756,19.437869822485208,6.226027397260274,55.12410958904108,0.0195121951219512,0.011,32.77797699,-96.79621124
"Dammam, SA",205.5,0.0,0.0,0.0,0.0,0.0,0.467,26.43927765,50.09445953
"Darmstadt, DE",33.283018867924525,0.0,0.0,0.0,0.0,0.0,0.013,49.87237167,8.6509819
"Darwin, AU",30.3489010989011,30.575418994413408,13.29050279329609,3.0348901098901093,73.94835164835165,329.1724489795918,0.01,-12.46083355,130.84443665
"Delhi, IN",156.29649595687331,0.0,0.0,0.0,0.0,0.0,0.19,28.64339066,77.11547852
"Denizli, TR",63.24342105263158,0.0,0.0,0.0,0.0,0.0,0.043,37.77868652,29.06165695
"Denver, US",25.733153638814017,25.775342465753425,17.66849315068493,3.732328767123288,46.37150684931508,0.0,0.007,39.73845291,-104.98485565
"Detroit, US",39.39457831325301,39.32326283987916,17.17948717948718,3.0290322580645164,72.37302052785924,0.0,0.017,42.33293915,-83.0478363
"Dhaka, BD",161.61559888579387,0.0,0.0,0.0,0.0,0.0,0.22,23.70730591,90.41548157
"Dijon, FR",30.38186813186813,0.0,0.0,0.0,0.0,0.0,0.01,47.32721329,5.04404116
"Dnipro, UA",31.598639455782312,0.0,0.0,0.0,0.0,0.0,0.011,48.47329712,35.00191498
"Dongguan, CN",64.1644204851752,0.0,0.0,0.0,0.0,0.0,0.045,23.02066994,113.75179291
"Donostia / San Sebastián, ES",33.71159029649596,0.0,0.0,0.0,0.0,0.0,0.013,43.32090378,-1.984514
"Dordrecht, NL",40.83923705722071,40.97783933518006,16.465753424657535,4.383013698630137,79.48849315068493,0.0,0.018,51.81155014,4.66636086
"Douliu, TW",55.8167115902965,0.0,0.0,0.0,0.0,0.0,0.031,23.69922447,120.5260849
"Dresden, DE",38.84699453551912,0.0,0.0,0.0,0.0,0.0,0.016,51.05099106,13.73363304
"Dubai, AE",164.94428152492668,0.0,0.0,0.0,0.0,0.0,0.238,24.93719292,55.37487793
"Dublin, IE",27.48816568047337,0.0,0.0,0.0,0.0,0.0,0.008,53.34409714,-6.2674861
"Durban, ZA",54.77707006369427,0.0,0.0,0.0,0.0,0.0,0.03,-29.88188934,30.98084259
"Dushanbe, TJ",105.36543909348444,0.0,0.0,0.0,0.0,0.0,0.103,38.57627106,68.78635406
"Düsseldorf, DE",38.49722222222222,0.0,0.0,0.0,0.0,0.0,0.016,51.22495651,6.77567816
"East London, ZA",101.92682926829268,0.0,0.0,0.0,0.0,0.0,0.098,-33.01343918,27.90420151
"Edinburgh, GB",20.40431266846361,20.46027397260274,8.827397260273973,3.760821917808219,80.27616438356164,0.0,0.003,55.95019531,-3.18756294
"Edmonton, CA",27.90566037735849,27.6,0.0,3.32027397260274,70.62739726027397,0.0,0.008,53.54445267,-113.49091339
"Eindhoven, NL",50.349726775956285,50.53611111111111,17.90958904109589,3.416164383561644,72.24821917808218,0.0,0.025,51.43659592,5.47800207
"El Paso, US",27.787061994609164,27.80821917808219,24.063013698630137,2.963561643835617,36.58410958904109,0.0,0.008,31.76010704,-106.49229431
"Erzurum, TR",70.83695652173913,0.0,0.0,0.0,0.0,0.0,0.054,39.90149689,41.26454926
"Eskişehir, TR",49.57790368271954,0.0,0.0,0.0,0.0,0.0,0.024,39.77077484,30.51798058
"Florence, IT",45.7967032967033,0.0,0.0,0.0,0.0,0.0,0.022,43.76869583,11.2569294
"Fort Worth, US",30.870619946091644,30.81917808219178,0.0,6.634615384615385,55.82328767123288,0.0324999999999999,0.01,32.74990463,-97.33033752
"Foshan, CN",65.42318059299191,0.0,0.0,0.0,0.0,0.0,0.046,23.02185059,113.12191772
"Freiburg, DE",31.671159029649598,0.0,0.0,0.0,0.0,0.0,0.011,47.99718475,7.85376692
"Fresno, US",40.71159029649596,41.04931506849315,33.47397260273973,2.014794520547945,53.84191780821918,0.0,0.018,36.73165512,-119.78585815
"Fukuoka, JP",41.490566037735846,41.46027397260274,13.986301369863014,2.393972602739726,69.20328767123287,69.50540540540541,0.018,33.59696198,130.4080658
"Funchal, PT",21.0,20.94943820224719,16.325842696629213,2.43321554770318,82.09068493150686,0.0,0.004,32.64753723,-16.90501595
"Fushun, CN",87.99730458221025,0.0,0.0,0.0,0.0,0.0,0.079,41.88107681,123.9570694
"Fuzhou, CN",60.6711590296496,0.0,0.0,0.0,0.0,0.0,0.039,26.07423019,119.29686737
"Gandhinagar, IN",106.11263736263736,0.0,0.0,0.0,0.0,0.0,0.104,23.22334671,72.64770508
"Gasteiz / Vitoria, ES",38.493261455525605,0.0,0.0,0.0,0.0,0.0,0.016,42.84685898,-2.67158604
"Gdańsk, PL",48.285714285714285,0.0,0.0,0.0,0.0,0.0,0.024,54.35603333,18.64612007
"Gent, BE",41.967845659163984,0.0,0.0,0.0,0.0,0.0,0.018,51.05381775,3.72227192
"Ghāziābād, IN",143.51373626373626,0.0,0.0,0.0,0.0,0.0,0.151,28.66908073,77.43041229
"Gifu-shi, JP",33.97289972899729,34.14876033057851,10.050704225352112,2.819178082191781,69.05589041095891,58.70311111111111,0.013,35.4230957,136.76275635
"Glasgow, GB",22.21024258760108,22.216438356164385,9.43013698630137,3.985753424657534,83.69013698630137,0.0,0.004,55.86568451,-4.25713778
"Granada, ES",48.58108108108108,0.0,0.0,0.0,0.0,0.0,0.024,37.17648315,-3.59793711
"Graz, AT",36.35175879396985,0.0,0.0,0.0,0.0,0.0,0.015,47.06954956,15.43818283
"Grenoble, FR",41.1008174386921,0.0,0.0,0.0,0.0,0.0,0.018,45.19425583,5.73166895
"Groningen, NL",33.57681940700809,33.62191780821918,17.92876712328767,2.220821917808219,78.39808219178082,0.0,0.013,53.21446991,6.56648111
"Guadalajara, MX",69.55270655270655,0.0,0.0,0.0,0.0,0.0,0.052,20.6751709,-103.34732819
"Guangzhou, CN",67.48247978436657,0.0,0.0,0.0,0.0,0.0,0.049,23.12907982,113.26435852
"Guatemala City, GT",47.45059288537549,0.0,0.0,0.0,0.0,0.0,0.023,14.64198017,-90.513237
"Guiyang, CN",61.84366576819407,0.0,0.0,0.0,0.0,0.0,0.04,26.64759064,106.63018799
"Gwangju, KR",56.00269541778976,0.0,0.0,0.0,0.0,0.0,0.033,35.16243744,126.91033936
"Győr, HU",45.30689655172414,45.059649122807016,19.78472222222222,2.2034129692832765,63.44300341296929,50.46896551724138,0.022,47.68405151,17.63510132
"Göteborg, SE",24.429752066115704,0.0,0.0,0.0,0.0,0.0,0.006,57.70887,11.97456
"Haarlem, NL",39.81940700808625,39.84931506849315,17.167123287671235,2.504120879120879,75.21808219178082,0.0,0.017,52.37949371,4.6377182
"Haifa, IL",58.45205479452055,0.0,0.0,0.0,0.0,0.0,0.036,32.81912231,34.99838638
"Haikou, CN",48.14824797843666,0.0,0.0,0.0,0.0,0.0,0.024,20.04470062,110.19998169
"Haiphong, VN",16.26341463414634,0.0,0.0,0.0,0.0,0.0,-0.0,20.8647213,106.68383026
"Halifax, CA",19.450134770889488,19.51232876712329,0.0,3.850958904109589,83.20328767123287,0.0,0.002,44.64624405,-63.57356644
"Hamburg, DE",39.97837837837838,0.0,0.0,0.0,0.0,0.0,0.017,53.55725479,9.99596596
"Hamilton, CA",29.514824797843666,29.39452054794521,0.0,2.4287671232876717,73.26109589041096,0.0,0.009,39.73892975,-122.01522827
"Hangzhou, CN",84.55256064690028,0.0,0.0,0.0,0.0,0.0,0.074,30.24592018,120.21079254
"Hanoi, VN",79.90835579514825,0.0,0.0,0.0,0.0,0.0,0.067,20.99848557,105.7004776
"Harbin, CN",82.87870619946092,0.0,0.0,0.0,0.0,0.0,0.071,45.80335999,126.53513336
"Hartford, US",28.80323450134771,28.6027397260274,12.46027397260274,3.251232876712329,61.84821917808219,0.0,0.009,41.76577377,-72.6733551
"Hefei, CN",88.38005390835579,0.0,0.0,0.0,0.0,0.0,0.08,31.82052612,117.22711182
"Hegang, CN",55.59299191374663,0.0,0.0,0.0,0.0,0.0,0.031,47.35012054,130.29801941
"Helsinki, FI",21.92265193370166,21.778089887640448,10.15819209039548,3.149019607843138,83.26722222222223,0.0,0.004,60.16980743,24.93812752
"Hiroshima, JP",38.04043126684636,38.16986301369863,12.797260273972602,1.995890410958904,62.14082191780823,69.71675126903554,0.016,34.38978195,132.44096375
"Ho Chi Minh City, VN",70.13725490196079,0.0,0.0,0.0,0.0,0.0,0.054,10.77653027,106.70097351
"Hobart, AU",10.819407008086252,10.86027397260274,5.23013698630137,1.9298630136986297,76.11068493150685,35.317266187050365,0.0,-42.88000107,147.32000732
"Hohhot, CN",70.21832884097034,0.0,0.0,0.0,0.0,0.0,0.054,40.84262085,111.74868011
"Hong Kong, HK",51.78167115902965,0.0,0.0,0.0,0.0,0.0,0.026,22.27533913,114.16545868
"Honolulu, US",16.669398907103826,16.508333333333333,10.941176470588236,1.5714285714285714,67.98131868131868,0.0,-0.0,21.30991936,-157.8581543
"Houston, US",39.23180592991914,38.84109589041096,0.0,5.197534246575343,69.58767123287672,0.0229885057471264,0.017,29.76080322,-95.36950684
"Hsinchu, TW",41.31266846361186,0.0,0.0,0.0,0.0,0.0,0.018,24.80726814,120.96849823
"Huelva, ES",35.945945945945944,0.0,0.0,0.0,0.0,0.0,0.014,37.25714493,-6.94953823
"Huế, VN",16.428571428571427,0.0,0.0,0.0,0.0,0.0,-0.0,16.47150612,107.56671143
"Hyderabad, IN",109.66847826086956,0.0,0.0,0.0,0.0,0.0,0.108,17.36599922,78.47599792
"Hāpur, IN",135.49725274725276,0.0,0.0,0.0,0.0,0.0,0.141,28.74046898,77.77690125
"Incheon, KR",62.460916442048514,0.0,0.0,0.0,0.0,0.0,0.042,37.47809219,126.64028931
"Indianapolis, US",38.68258426966292,38.53714285714285,19.781437125748504,1.7435028248587572,71.93898305084747,0.0,0.016,39.76845169,-86.15621185
"Isfahan, IR",96.63106796116504,0.0,0.0,0.0,0.0,0.0,0.092,32.70920563,51.64126587
"Islamabad, PK",109.63478260869566,0.0,0.0,0.0,0.0,0.0,0.108,33.72000122,73.05999756
"Istanbul, TR",62.94054054054054,0.0,0.0,0.0,0.0,0.0,0.042,41.01300049,28.96380043
"Ivano-Frankivsk, UA",20.303571428571427,0.0,0.0,0.0,0.0,0.0,0.003,48.92277908,24.71055984
"Jackson, US",35.42048517520216,35.33698630136986,16.12054794520548,2.852876712328767,76.12657534246576,0.0,0.014,32.30289841,-90.18348694
"Jacksonville, US",34.63072776280323,34.52054794520548,17.306849315068494,1.4750684931506848,80.6868493150685,0.0,0.013,30.32596779,-81.65676117
"Jaipur, IN",124.98076923076924,0.0,0.0,0.0,0.0,0.0,0.127,26.92103958,75.7943573
"Jakarta, ID",91.58490566037736,91.75890410958904,39.90526315789474,2.037575757575758,75.72912087912088,0.0,0.085,-6.20823908,106.83882141
"Jeju City, KR",50.41509433962264,0.0,0.0,0.0,0.0,0.0,0.025,33.51013565,126.52193451
"Jeonju, KR",60.57412398921833,0.0,0.0,0.0,0.0,0.0,0.039,35.81700134,127.15000153
"Jerusalem, IL",55.38082191780822,0.0,0.0,0.0,0.0,0.0,0.031,31.77882385,35.22576141
"Jieyang, CN",70.26684636118598,0.0,0.0,0.0,0.0,0.0,0.054,23.54978943,116.37281036
"Jinan, CN",93.50943396226415,0.0,0.0,0.0,0.0,0.0,0.087,36.65184021,117.12008667
"Johannesburg, ZA",72.93243243243244,0.0,0.0,0.0,0.0,0.0,0.056,-26.20145226,28.04548836
"Kagoshima, JP",38.13550135501355,38.22038567493113,14.43526170798898,3.1049315068493155,73.09671232876713,59.203433476394856,0.016,31.5859642,130.56106567
"Kampala, UG",120.83382789317508,0.0,0.0,0.0,0.0,0.0,0.122,0.31771401,32.58135223
"Kanazawa, JP",28.702247191011235,28.85754985754986,9.73150684931507,3.41013698630137,73.23287671232876,43.09324894514767,0.009,36.56000137,136.64001465
"Kaohsiung, TW",62.83018867924528,0.0,0.0,0.0,0.0,0.0,0.042,22.62054825,120.31204987
"Karachi, PK",108.92628205128206,0.0,0.0,0.0,0.0,0.0,0.107,24.87193871,66.98806
"Karaj, IR",101.43558282208588,0.0,0.0,0.0,0.0,0.0,0.098,35.82249069,50.99046707
"Karlsruhe, DE",37.700808625336926,0.0,0.0,0.0,0.0,0.0,0.015,49.00808334,8.40375614
"Kassel, DE",35.78436657681941,0.0,0.0,0.0,0.0,0.0,0.014,51.31842422,9.49322701
"Kathmandu, NP",104.25876010781673,103.53424657534246,39.86222222222222,1.2613698630136985,79.1145205479452,0.0,0.102,27.71201706,85.31295013
"Katowice, PL",65.74489795918367,0.0,0.0,0.0,0.0,0.0,0.046,50.25860596,19.02042007
"Kaunas, LT",40.506802721088434,0.0,0.0,0.0,0.0,0.0,0.018,54.89687347,23.89242554
"Kayseri, TR",57.722371967654986,0.0,0.0,0.0,0.0,0.0,0.034,38.72278976,35.48904037
"Kecskemét, HU",47.528301886792455,47.26996197718631,18.30902777777778,3.18566552901024,61.89556313993175,61.92622950819673,0.023,46.90643692,19.68972206
"Keelung, TW",33.15363881401617,0.0,0.0,0.0,0.0,0.0,0.013,25.13170242,121.74451447
"Kerman, IR",75.29136690647482,0.0,0.0,0.0,0.0,0.0,0.061,30.29240799,57.06456375
"Kermanshah, IR",64.55555555555556,0.0,0.0,0.0,0.0,0.0,0.045,34.32394028,47.07358932
"Khorramabad, IR",73.82594936708861,0.0,0.0,0.0,0.0,0.0,0.058,33.48421097,48.35382843
"Khorramshahr, IR",114.95,0.0,0.0,0.0,0.0,0.0,0.114,30.43330956,48.17798615
"Kitchener, CA",28.90566037735849,28.734246575342464,0.0,3.4865753424657533,71.90904109589042,0.0,0.009,43.44978714,-80.48908997
"Klerksdorp, ZA",22.952380952380956,0.0,0.0,0.0,0.0,0.0,0.004,-26.87049103,26.66446495
"Kobe, JP",37.44173441734417,37.44903581267218,11.8732782369146,1.9,66.84876712328767,66.5058536585366,0.015,34.67998886,135.16998291
"Kochi, JP",36.0,36.162534435261705,11.03581267217631,1.5926027397260272,71.47424657534248,54.409743589743584,0.015,33.56243515,133.53752136
"Kolkata, IN",110.87061994609164,0.0,0.0,0.0,0.0,0.0,0.109,22.56557274,88.37021637
"Konya, TR",88.45283018867924,0.0,0.0,0.0,0.0,0.0,0.08,37.87165833,32.49895859
"Košice, SK",57.79514824797844,57.515068493150686,22.6,2.6293150684931508,72.12027397260275,57.17777777777778,0.034,48.71710968,21.25978279
"Kraków, PL",61.80487804878049,0.0,0.0,0.0,0.0,0.0,0.04,50.05480957,19.927845
"Krasnoyarsk, RU",31.24728260869565,0.0,0.0,0.0,0.0,0.0,0.011,56.01005173,92.8526001
"Kryvyi Rih, UA",14.25,0.0,0.0,0.0,0.0,0.0,0.0,47.93434143,33.43420029
"Kumamoto, JP",43.118598382749326,43.11780821917808,14.2,1.908219178082192,71.43917808219177,64.43060344827586,0.02,32.80093002,130.70063782
"Kunming, CN",60.79245283018868,0.0,0.0,0.0,0.0,0.0,0.039,24.8800106,102.83296204
"Kyiv, UA",28.085324232081916,0.0,0.0,0.0,0.0,0.0,0.009,50.44974899,30.52371788
"Kyoto, JP",40.33692722371968,40.45205479452055,13.265753424657534,1.7747945205479452,73.8676712328767,71.49668049792531,0.018,35.10606003,135.72740173
"Köln, DE",36.23888888888889,0.0,0.0,0.0,0.0,0.0,0.015,50.94053268,6.9599061
"Kütahya, TR",75.48857142857143,0.0,0.0,0.0,0.0,0.0,0.061,39.41989136,29.98519135
"Lahore, PK",190.5866141732284,0.0,0.0,0.0,0.0,0.0,0.394,31.56191826,74.34807587
"Lampang, TH",69.98382749326146,0.0,0.0,0.0,0.0,0.0,0.052,18.29069328,99.49891663
"Lanzhou, CN",99.30188679245283,0.0,0.0,0.0,0.0,0.0,0.096,36.06137848,103.83416748
"Las Palmas de Gran Canaria, ES",31.302702702702703,0.0,0.0,0.0,0.0,0.0,0.011,28.12482643,-15.43002129
"Launceston, AU",14.064690026954178,14.18082191780822,5.753424657534247,3.5550684931506846,77.04301369863013,48.96952380952381,0.0,-41.43999863,147.13999939
"Leeds, GB",39.84097035040431,39.90958904109589,17.791780821917808,1.9145205479452057,76.78739726027398,0.0,0.017,53.79969025,-1.54910302
"Leicester, GB",35.36657681940701,35.56438356164384,13.370473537604456,5.337534246575343,78.52109589041096,0.0,0.014,52.63486099,-1.12906003
"Lhasa, CN",27.555256064690028,0.0,0.0,0.0,0.0,0.0,0.008,29.65226936,91.17192078
"Lille, FR",42.74857142857143,0.0,0.0,0.0,0.0,0.0,0.019,50.63128662,3.06275296
"Lima, PE",83.43126684636118,0.0,0.0,0.0,0.0,0.0,0.073,-12.20010853,-76.28505707
"Limassol, CY",53.24528301886792,53.131506849315066,27.726027397260275,3.746027397260274,66.23150684931507,0.0,0.028,34.68529129,33.03326416
"Linz, AT",43.678378378378376,0.0,0.0,0.0,0.0,0.0,0.02,48.30608749,14.28643703
"Lisbon, PT",29.90782122905028,29.869318181818183,17.897727272727273,3.885205479452055,76.37041095890412,0.0,0.009,39.00139236,-9.16674137
"Little Rock, US",34.67857142857143,34.61173184357542,0.0,4.622191780821918,62.33068493150685,0.0,0.013,34.74874496,-92.27510834
"Liverpool, GB",33.22911051212938,33.33424657534247,14.169863013698633,4.206027397260273,78.2158904109589,0.0,0.013,53.41077805,-2.97783804
"Livorno, IT",40.79076086956522,0.0,0.0,0.0,0.0,0.0,0.018,43.55194092,10.30832958
"Liège, BE",30.10576923076923,0.0,0.0,0.0,0.0,0.0,0.01,50.64390945,5.571558
"London, CA",27.83827493261456,27.616438356164384,0.0,3.734794520547945,72.4695890410959,0.0,0.008,36.48064804,-119.44284058
"London, GB",37.65768194070081,37.81643835616438,15.865753424657534,2.5536986301369864,74.71123287671233,0.0,0.015,51.50015259,-0.12623601
"Los Angeles, US",48.83827493261455,49.2,25.692307692307693,1.9238356164383563,64.76657534246576,0.0,0.024,34.05223846,-118.24334717
"Los Ángeles, CL",34.83739837398374,0.0,0.0,0.0,0.0,0.0,0.013,-31.76133728,-71.31877136
"Lucknow, IN",136.45604395604394,0.0,0.0,0.0,0.0,0.0,0.142,26.85000038,80.94999695
"Lviv, UA",40.369369369369366,0.0,0.0,0.0,0.0,0.0,0.018,49.83968353,24.02971649
"Lyon, FR",40.47138964577657,0.0,0.0,0.0,0.0,0.0,0.018,45.76730728,4.83430719
"Maastricht, NL",38.692934782608695,39.01933701657459,17.76986301369863,1.8964187327823692,79.04082191780822,0.0,0.016,50.84984589,5.6872592
"Macau, MO",51.73854447439353,0.0,0.0,0.0,0.0,0.0,0.026,22.18684006,113.54293823
"Madison, US",31.506738544474395,31.263013698630136,14.134615384615383,2.3709589041095893,73.69287671232875,0.014,0.011,43.07392502,-89.38524628
"Madrid, ES",38.61185983827493,0.0,0.0,0.0,0.0,0.0,0.016,40.41669083,-3.70034599
"Malmö, SE",29.29891304347826,0.0,0.0,0.0,0.0,0.0,0.009,55.60331345,13.0013113
"Manama, BH",130.9533073929961,0.0,0.0,0.0,0.0,0.0,0.134,26.22350502,50.58224487
"Manchester, GB",36.328840970350406,36.52328767123288,15.67945205479452,2.691780821917808,74.44547945205478,0.0,0.015,53.48071289,-2.23437595
"Manhattan, US",27.06738544474393,26.8,0.0,2.3936986301369862,64.32438356164384,0.0,0.008,40.75325012,-74.00380707
"Marseille, FR",42.50270270270271,0.0,0.0,0.0,0.0,0.0,0.019,43.29502106,5.37448692
"Mashhad, IR",82.3975155279503,0.0,0.0,0.0,0.0,0.0,0.071,36.29749298,59.6059227
"Matsuyama, JP",41.40970350404313,41.52602739726027,13.67123287671233,2.2276712328767125,69.26356164383562,69.21340206185567,0.018,33.83700562,132.77154541
"Medellín, CO",61.68021680216802,61.56749311294766,32.80332409972299,0.8583561643835617,94.45972602739728,0.0,0.04,6.24433804,-75.57355499
"Melbourne, AU",24.665768194070083,24.621917808219177,14.153424657534249,3.0178082191780824,76.97013698630137,38.895336787564766,0.006,-37.81546021,144.96716309
"Memphis, US",34.84636118598383,34.81643835616438,0.0,2.69972602739726,71.32027397260275,0.0,0.013,35.14337921,-90.05213928
"Metz, FR",39.73559322033898,0.0,0.0,0.0,0.0,0.0,0.017,49.11446381,6.17209005
"Mexico City, MX",62.55795148247979,0.0,0.0,0.0,0.0,0.0,0.042,19.43267822,-99.13420868
"Miami, US",28.9811320754717,28.78904109589041,15.627397260273971,2.9452054794520546,78.83013698630137,0.0,0.009,25.77508354,-80.19470215
"Middelburg, ZA",48.20612813370474,0.0,0.0,0.0,0.0,0.0,0.024,-25.76609039,29.45779991
"Milan, IT",67.90785907859079,0.0,0.0,0.0,0.0,0.0,0.049,45.46361923,9.18811607
"Milwaukee, US",33.71159029649596,33.44931506849315,16.438356164383563,3.56054794520548,70.66849315068494,0.0,0.013,43.04107285,-87.90942383
"Miskolc, HU",56.43835616438356,55.397212543554005,20.571428571428573,2.0034129692832763,63.32866894197952,66.60000000000001,0.033,48.10433578,20.7916584
"Mississauga, CA",27.06738544474393,26.934246575342467,0.0,2.0435616438356163,69.70794520547946,0.0,0.008,43.59129333,-79.6502533
"Miyazaki, JP",44.14324324324324,44.23351648351648,12.447802197802195,2.873150684931507,76.8676712328767,62.84641350210971,0.021,31.91699982,131.41700745
"Modena, IT",59.85405405405405,0.0,0.0,0.0,0.0,0.0,0.037,44.64709854,10.92519188
"Mokpo, KR",52.37196765498652,0.0,0.0,0.0,0.0,0.0,0.027,34.79685593,126.39441681
"Monterrey, MX",64.1638418079096,0.0,0.0,0.0,0.0,0.0,0.045,25.66469765,-100.3108902
"Montpellier, FR",36.544474393531,0.0,0.0,0.0,0.0,0.0,0.015,43.60829163,3.87960291
"Montréal, CA",29.97035040431267,29.77260273972603,0.0,2.4753424657534246,68.10931506849316,0.0,0.009,45.50906372,-73.55335999
"Morelia, MX",59.57846153846154,0.0,0.0,0.0,0.0,0.0,0.037,19.70187187,-101.19234467
"Moscow, RU",39.01418439716312,0.0,0.0,0.0,0.0,0.0,0.017,55.75222015,37.61555862
"Mumbai, IN",106.37196765498652,0.0,0.0,0.0,0.0,0.0,0.104,18.96904755,72.82118225
"Muzaffarnagar, IN",152.59615384615384,0.0,0.0,0.0,0.0,0.0,0.166,29.47255707,77.70713043
"Mysore, IN",62.744505494505496,0.0,0.0,0.0,0.0,0.0,0.042,12.3084383,76.65393066
"Málaga, ES",43.054054054054056,0.0,0.0,0.0,0.0,0.0,0.02,36.7196312,-4.42000008
"Münster, DE",37.57821229050279,0.0,0.0,0.0,0.0,0.0,0.015,52.98540497,10.09009171
"Nagano, JP",29.506738544474395,29.55890410958904,8.578082191780823,2.0136986301369864,76.58219178082192,58.41106382978723,0.009,36.64403152,138.10171509
"Nagasaki, JP",36.22641509433962,36.15068493150685,12.843835616438357,2.348219178082192,72.04164383561644,64.66741071428571,0.015,32.78348923,129.82772827
"Nagoya, JP",34.506738544474395,34.64383561643836,11.747945205479452,2.3312328767123285,67.72082191780822,61.863675213675215,0.013,35.15694427,136.91304016
"Nagpur, IN",107.14488636363636,0.0,0.0,0.0,0.0,0.0,0.106,21.15261841,79.0881958
"Naha, JP",23.75138121546961,23.72752808988764,14.132022471910112,4.919613259668509,80.21298342541436,53.63937282229965,0.005,26.20046997,127.72858429
"Nakhon Pathom, TH",59.54716981132076,0.0,0.0,0.0,0.0,0.0,0.037,13.82313633,100.05728149
"Namur, BE",27.961290322580645,0.0,0.0,0.0,0.0,0.0,0.008,50.46492386,4.86506319
"Nanchang, CN",82.24258760107817,0.0,0.0,0.0,0.0,0.0,0.071,28.68268394,115.85816956
"Nancy, FR",42.11217948717949,0.0,0.0,0.0,0.0,0.0,0.019,48.69078064,6.18246603
"Nanjing, CN",79.76280323450135,0.0,0.0,0.0,0.0,0.0,0.067,32.05838013,118.79647064
"Nanning, CN",76.76819407008087,0.0,0.0,0.0,0.0,0.0,0.062,22.81723595,108.36626434
"Nantes, FR",33.80397727272727,0.0,0.0,0.0,0.0,0.0,0.013,47.21826553,-1.557181
"Naples, IT",55.02164502164502,0.0,0.0,0.0,0.0,0.0,0.031,40.83998489,14.25254154
"Nara-shi, JP",38.64690026954178,38.74246575342466,11.931506849315069,1.9454794520547949,70.96739726027397,59.78976744186047,0.016,34.68444061,135.80499268
"Nashik, IN",95.67065868263474,0.0,0.0,0.0,0.0,0.0,0.09,20.05602264,73.64289093
"Nashville, US",34.80592991913747,34.78082191780822,0.0,2.9178082191780823,69.33205479452054,0.0,0.013,36.1663475,-86.77905273
"Netanya, IL",63.925824175824175,0.0,0.0,0.0,0.0,0.0,0.043,32.3286171,34.8566246
"New Delhi, IN",156.26376811594204,0.0,0.0,0.0,0.0,0.0,0.19,28.63242531,77.21878815
"Newcastle, AU",18.644204851752026,18.726027397260275,14.96986301369863,3.852054794520548,77.53616438356164,27.1273631840796,0.001,-32.92921066,151.77001953
"Newport, GB",28.33692722371968,28.39452054794521,11.64931506849315,1.0430555555555554,79.70807799442898,0.0,0.009,52.01679993,-4.8295269
"Nice, FR",38.0945945945946,0.0,0.0,0.0,0.0,0.0,0.016,43.70342636,7.26626492
"Nicosia, CY",60.6,60.22802197802198,31.645604395604398,3.657808219178082,60.44465753424657,0.0,0.039,35.17489624,33.36385727
"Niigata, JP",28.36657681940701,28.71780821917808,9.189041095890412,2.707123287671233,76.67890410958904,48.37537878787879,0.009,37.91999817,139.0400238
"Nijmegen, NL",39.50134770889488,39.74520547945205,18.213698630136985,2.294512195121951,77.0386301369863,0.0,0.017,51.84169388,5.85865116
"Ningbo, CN",68.21563342318059,0.0,0.0,0.0,0.0,0.0,0.05,29.86007118,121.62428284
"Niš, RS",71.20754716981132,70.47397260273972,25.528767123287672,2.2356164383561645,67.13561643835617,0.0,0.055,43.31686783,21.89449883
"Norwich, GB",37.16986301369863,37.31476323119777,13.852367688022284,2.4997260273972604,78.9764383561644,0.0,0.015,52.62810135,1.29934895
"Novi Sad, RS",51.65498652291105,51.14246575342466,18.695890410958903,2.7888888888888888,52.19041095890411,0.0,0.026,45.25455475,19.84257507
"Novosibirsk, RU",64.11382113821138,0.0,0.0,0.0,0.0,0.0,0.045,55.04999924,82.94999695
"Nur-Sultan, KZ",53.73053892215569,0.0,0.0,0.0,0.0,0.0,0.028,51.1282196,71.43067169
"Nîmes, FR",34.50948509485095,0.0,0.0,0.0,0.0,0.0,0.013,43.83459091,4.36086416
"Oakland, US",31.80323450134771,32.07945205479452,0.0,2.7654794520547945,72.23534246575343,0.0,0.011,37.80482864,-122.2724762
"Oaxaca, MX",129.36363636363637,0.0,0.0,0.0,0.0,0.0,0.133,17.0618763,-96.72459412
"Okayama, JP",43.33962264150944,43.38904109589041,14.386301369863014,2.5515068493150683,71.1268493150685,74.71324786324786,0.02,34.72589493,133.91300964
"Oklahoma City, US",34.81132075471698,34.99452054794521,19.994520547945207,5.429863013698631,60.49287671232877,0.0,0.013,35.46849442,-97.52126312
"Olomouc, CZ",48.73854447439353,0.0,0.0,0.0,0.0,0.0,0.024,49.59538651,17.25187302
"Omaha, US",25.889487870619945,25.715068493150685,18.553424657534247,2.6254794520547944,64.04493150684932,0.0,0.007,41.25865173,-95.93719482
"Orléans, FR",35.74393530997305,0.0,0.0,0.0,0.0,0.0,0.014,47.90139771,1.903916
"Orūmīyeh, IR",65.65060240963855,0.0,0.0,0.0,0.0,0.0,0.046,37.54934692,45.0682869
"Osaka, JP",37.12938005390836,37.2,12.608219178082193,1.8372602739726025,68.1682191780822,69.76721991701244,0.015,34.69388962,135.50221252
"Oslo, NO",28.072972972972973,0.0,0.0,0.0,0.0,0.0,0.009,59.97575378,10.73856163
"Osorno, CL",59.56603773584906,0.0,0.0,0.0,0.0,0.0,0.037,-40.57323837,-73.13581085
"Ostrava, CZ",60.40161725067385,0.0,0.0,0.0,0.0,0.0,0.039,49.84079361,18.29088402
"Ottawa, CA",27.3099730458221,27.12054794520548,0.0,1.456868131868132,68.99369863013699,0.0,0.008,45.4204216,-75.69242859
"Oulu, FI",20.0,0.0,8.526912181303116,1.7511235955056177,75.2549295774648,0.0,0.003,65.01265717,25.47138596
"Oviedo, ES",39.2,0.0,0.0,0.0,0.0,0.0,0.017,43.3602829,-5.84479189
"Pachuca de Soto, MX",46.36206896551724,0.0,0.0,0.0,0.0,0.0,0.022,20.12650299,-98.73034668
"Palma, ES",43.27222222222223,0.0,0.0,0.0,0.0,0.0,0.02,39.56945038,2.64994597
"Paris, FR",43.77628032345014,0.0,0.0,0.0,0.0,0.0,0.02,48.85689545,2.35084891
"Parma, IT",59.07297297297297,0.0,0.0,0.0,0.0,0.0,0.037,44.80781937,10.32962704
"Patna, IN",144.80769230769232,0.0,0.0,0.0,0.0,0.0,0.152,25.54798698,85.07231903
"Perpignan, FR",33.02832861189802,0.0,0.0,0.0,0.0,0.0,0.013,42.7015152,2.89411998
"Perth, AU",6.734285714285714,6.726744186046512,5.901162790697675,3.8673130193905823,66.57229916897508,32.192366412213744,0.0,-31.95183945,115.85870361
"Peshawar, PK",144.9140401146132,0.0,0.0,0.0,0.0,0.0,0.152,34.00696182,71.53305817
"Petaẖ Tiqwa, IL",69.4776119402985,0.0,0.0,0.0,0.0,0.0,0.052,32.08987,34.88045
"Philadelphia, US",31.398921832884096,31.19178082191781,0.0,2.3487671232876712,68.4331506849315,0.0,0.011,39.95106125,-75.1656189
"Phoenix, US",29.16711590296496,28.846575342465755,20.295890410958904,1.50027397260274,32.205205479452054,0.0,0.009,33.44820404,-112.07258606
"Pilsen, CZ",43.460916442048514,0.0,0.0,0.0,0.0,0.0,0.02,49.74684525,13.37698936
"Plymouth, GB",33.38274932614555,33.26301369863014,16.454794520547946,3.372328767123288,83.03945205479452,0.0,0.013,50.3703804,-4.14265299
"Pohang, KR",55.41239892183288,0.0,0.0,0.0,0.0,0.0,0.031,36.03073883,129.37342834
"Pokhara, NP",111.77564102564102,109.78947368421052,46.94078947368421,1.730434782608696,71.46832298136647,0.0,0.111,28.21223068,83.98734283
"Port Elizabeth, ZA",33.833333333333336,0.0,0.0,0.0,0.0,0.0,0.013,-33.96076202,25.62063789
"Portland, US",25.90026954177897,25.89041095890411,0.0,1.9884931506849317,73.79972602739727,0.0,0.007,45.51601791,-122.681427
"Potsdam, DE",38.70619946091645,0.0,0.0,0.0,0.0,0.0,0.016,52.39614487,13.05853844
"Poznań, PL",47.350710900473935,0.0,0.0,0.0,0.0,0.0,0.023,52.40018845,16.92755127
"Prague, CZ",45.45822102425876,0.0,0.0,0.0,0.0,0.0,0.022,50.08781052,14.42045975
"Prato, IT",53.12021857923497,0.0,0.0,0.0,0.0,0.0,0.028,43.87960815,11.09624863
"Preston, GB",33.14016172506739,33.26575342465753,13.536986301369865,3.5334246575342463,81.02575342465752,0.0,0.013,53.75772858,-2.70343995
"Pretoria, ZA",69.69459459459459,0.0,0.0,0.0,0.0,0.0,0.052,-25.74601936,28.18712044
"Pristina, XK",76.02702702702703,0.0,0.0,0.0,0.0,0.0,0.062,42.66543579,21.16532326
"Providence, US",22.07547169811321,21.972602739726028,0.0,2.3197802197802195,53.38493150684931,0.0,0.004,41.82446289,-71.41275024
"Puebla, MX",64.11620795107034,0.0,0.0,0.0,0.0,0.0,0.045,19.03300095,-98.18299866
"Puerto Montt, CL",52.65229110512129,0.0,0.0,0.0,0.0,0.0,0.027,-41.47179794,-72.93959045
"Pécs, HU",43.7438596491228,43.225,17.006968641114984,3.003754266211604,61.5962457337884,42.24230769230769,0.02,46.07130051,18.23313713
"Qingdao, CN",72.35405405405406,0.0,0.0,0.0,0.0,0.0,0.056,36.06811142,120.38226318
"Qinhuangdao, CN",74.5822102425876,0.0,0.0,0.0,0.0,0.0,0.059,39.88712311,119.52008057
"Qiqihar, CN",59.649595687331534,0.0,0.0,0.0,0.0,0.0,0.037,47.35430908,123.91796112
"Qom, IR",72.53205128205128,0.0,0.0,0.0,0.0,0.0,0.056,34.64462662,50.87475204
"Queens, US",28.932614555256063,28.673972602739727,0.0,3.3802739726027404,62.045753424657526,0.0,0.009,40.75977707,-73.81729889
"Quilpué, CL",51.81132075471698,0.0,0.0,0.0,0.0,0.0,0.026,-33.04981232,-71.44152832
"Quito, EC",52.1219512195122,51.57142857142857,21.266666666666666,1.136046511627907,81.90375000000002,0.4029850746268656,0.027,-0.220164,-78.5123291
"Québec, CA",26.69272237196765,26.605479452054794,0.0,3.144109589041096,74.07534246575342,0.0,0.007,53.00482941,-70.77841187
"Raleigh, US",31.532608695652176,31.511049723756905,13.831491712707182,1.663835616438356,75.17534246575343,0.0,0.011,35.78130341,-78.64167786
"Rancagua, CL",66.95417789757413,0.0,0.0,0.0,0.0,0.0,0.048,-34.17024994,-70.74074554
"Rayong, TH",60.299191374663074,0.0,0.0,0.0,0.0,0.0,0.039,12.68172073,101.25603485
"Reading, GB",27.179063360881543,27.282913165266105,14.444759206798867,2.771546961325967,77.44657534246576,0.0,0.008,51.45503998,-0.96908802
"Rennes, FR",35.16172506738545,0.0,0.0,0.0,0.0,0.0,0.014,48.11178207,-1.680264
"Reykjavík, IS",14.067385444743936,14.002739726027396,6.367123287671233,5.198630136986302,74.24301369863014,0.0,0.0,64.14720917,-21.94239998
"Richards Bay, ZA",9.476190476190476,0.0,0.0,0.0,0.0,0.0,0.0,-28.75058556,32.04932022
"Richmond, US",31.660377358490567,31.572602739726022,13.391666666666667,1.70986301369863,70.10767123287671,0.0,0.011,37.54076004,-77.43392944
"Rijeka, HR",36.935483870967744,36.65567765567766,11.917808219178085,3.843131868131868,63.89506849315069,0.0,0.015,45.32691193,14.44099617
"Rome, IT",48.14594594594595,0.0,0.0,0.0,0.0,0.0,0.024,41.89055634,12.49426746
"Rotterdam, NL",38.3611859838275,38.47123287671233,18.638356164383563,3.8912328767123294,78.26356164383562,0.0,0.016,51.9229126,4.47058487
"Rouen, FR",40.578947368421055,0.0,0.0,0.0,0.0,0.0,0.018,49.44239807,1.09846401
"Sacramento, US",31.070080862533693,31.34246575342466,18.06111111111111,2.690684931506849,60.78273972602739,0.0,0.011,38.57693481,-121.49494934
"Saint Paul, US",27.48247978436658,27.293150684931508,14.6986301369863,3.0742465753424657,69.23369863013698,0.0,0.008,44.94371796,-93.09428406
"Saint-Denis, RE",21.829201101928376,0.0,0.0,0.0,0.0,0.0,0.004,-20.88297653,55.45001602
"Saint-Étienne, FR",33.67574931880109,0.0,0.0,0.0,0.0,0.0,0.013,46.62480927,2.45837402
"Saitama, JP",36.02425876010782,36.153424657534245,12.076712328767124,1.5265753424657535,66.73205479452055,66.00725388601037,0.015,35.86177444,139.64562988
"Salamanca, ES",33.17027027027027,0.0,0.0,0.0,0.0,0.0,0.013,40.96496582,-5.66309214
"Salem, US",25.013477088948783,25.15068493150685,0.0,2.451232876712329,81.98273972602739,0.0,0.007,44.93901443,-123.03930664
"Salt Lake City, US",28.787061994609164,29.03013698630137,16.81095890410959,2.4095890410958902,49.0241095890411,0.0,0.009,40.75847626,-111.88814545
"Salzburg, AT",36.09973045822103,0.0,0.0,0.0,0.0,0.0,0.015,47.80049896,13.04440975
"Samsun, TR",65.43126684636118,0.0,0.0,0.0,0.0,0.0,0.046,38.98909378,35.43323517
"Samut Prakan, TH",80.70350404312669,0.0,0.0,0.0,0.0,0.0,0.068,13.59946442,100.59695435
"San Antonio, US",36.13477088948787,35.632876712328766,0.0,5.266849315068494,63.19232876712329,0.0025641025641025,0.015,29.4251709,-98.49461365
"San Diego, US",40.3688524590164,40.74722222222222,20.167832167832167,1.887945205479452,68.54191780821918,0.0,0.018,32.71575928,-117.16381836
"San Francisco, US",30.245283018867923,30.484931506849318,0.0,2.1145205479452054,76.84739726027398,0.0,0.01,37.78007889,-122.42015839
"San Jose, US",31.42587601078167,31.663013698630134,0.0,2.696438356164384,68.59643835616438,0.0,0.011,37.33479309,-121.88814545
"San José, CR",28.498507462686568,0.0,0.0,0.0,0.0,0.0,0.009,9.93313408,-84.07978058
"San Juan, PR",32.26714801444043,0.0,0.0,0.0,0.0,0.0,0.012,18.46630287,-66.10523224
"San Salvador, SV",74.50948509485094,0.0,0.0,0.0,0.0,0.0,0.059,13.69841003,-89.19235229
"Sanandaj, IR",41.66942148760331,0.0,0.0,0.0,0.0,0.0,0.018,35.312603,46.99786377
"Santa Cruz de Tenerife, ES",37.3054054054054,0.0,0.0,0.0,0.0,0.0,0.015,28.46979904,-16.25483513
"Santiago, CL",70.6765498652291,0.0,0.0,0.0,0.0,0.0,0.054,-33.43777466,-70.65045166
"Sapporo, JP",27.82210242587601,27.975342465753425,8.712328767123287,3.263013698630137,72.39890410958904,61.69032258064516,0.008,43.03434753,141.35879517
"Sarajevo, BA",78.53908355795149,0.0,0.0,0.0,0.0,0.0,0.065,43.85818481,18.41234207
"Seattle, US",31.477088948787063,31.50958904109589,0.0,2.1293150684931508,72.68575342465755,0.0,0.011,47.60322952,-122.33027649
"Sejong, KR",66.90566037735849,0.0,0.0,0.0,0.0,0.0,0.048,36.50605011,127.25171661
"Sendai, JP",27.549865229110512,27.767123287671232,9.95068493150685,2.0942465753424657,73.38849315068492,72.41760563380281,0.008,38.25196838,140.88621521
"Seongnam-si, KR",58.56603773584906,0.0,0.0,0.0,0.0,0.0,0.036,37.44055557,127.13583374
"Seoul, KR",59.89487870619946,0.0,0.0,0.0,0.0,0.0,0.037,37.55271149,126.99595642
"Sevilla, ES",43.58108108108108,0.0,0.0,0.0,0.0,0.0,0.02,37.38264084,-5.99629498
"Shanghai, CN",74.86253369272237,0.0,0.0,0.0,0.0,0.0,0.059,31.23036957,121.47370148
"Shantou, CN",57.20754716981132,0.0,0.0,0.0,0.0,0.0,0.034,23.35435104,116.68193817
"Sheffield, GB",34.64150943396226,34.654794520547945,13.13972602739726,1.7295890410958903,79.30383561643836,0.0,0.013,53.38305664,-1.46479499
"Shenyang, CN",84.99460916442048,0.0,0.0,0.0,0.0,0.0,0.074,41.67725372,123.46437836
"Shenzhen, CN",55.85175202156334,0.0,0.0,0.0,0.0,0.0,0.031,22.54368019,114.0579071
"Shijiazhuang, CN",106.1967654986523,0.0,0.0,0.0,0.0,0.0,0.104,38.04232025,114.51477814
"Shillong, IN",87.00828729281768,0.0,0.0,0.0,0.0,0.0,0.079,25.57948875,91.89372253
"Shiraz, IR",83.25795053003533,0.0,0.0,0.0,0.0,0.0,0.073,29.60602188,52.53780365
"Shiyan, CN",90.3288409703504,0.0,0.0,0.0,0.0,0.0,0.083,32.62888718,110.79902649
"Shizuoka, JP",29.172506738544477,29.383561643835616,10.76986301369863,2.191232876712329,71.14136986301371,51.23712871287128,0.009,34.98583603,138.38539124
"Singapore, SG",39.681940700808624,0.0,0.0,0.0,0.0,0.0,0.017,1.28943598,103.84998322
"Sivas, TR",49.97574123989218,0.0,0.0,0.0,0.0,0.0,0.024,39.75097656,37.01525497
"Skopje, MK",70.23224043715847,69.6,32.04709141274238,1.4373626373626371,69.04109589041096,0.0,0.054,41.99401093,21.43592072
"Southend-on-Sea, GB",36.99730458221024,37.17808219178082,14.147945205479452,4.5966386554621845,74.8950684931507,0.0,0.015,51.5404129,0.71175599
"Springfield, US",33.99460916442049,33.8054794520548,0.0,3.4134246575342466,70.52,0.0,0.013,39.79935837,-89.64362335
"Staten Island, US",30.080862533692724,29.805479452054797,0.0,2.316164383561644,63.94219178082192,0.0,0.01,40.64349747,-74.07620239
"Stavanger, NO",26.38918918918919,0.0,0.0,0.0,0.0,0.0,0.007,58.96442795,5.72624779
"Stockholm, SE",20.3739837398374,0.0,0.0,0.0,0.0,0.0,0.003,59.33278656,18.06448746
"Stuttgart, DE",39.698113207547166,0.0,0.0,0.0,0.0,0.0,0.017,48.77710724,9.18076897
"Suncheon, KR",45.41509433962264,0.0,0.0,0.0,0.0,0.0,0.022,34.94483185,127.49372101
"Surrey, CA",28.12727272727273,28.01834862385321,9.66481994459834,1.009315068493151,80.95479452054795,0.0,0.009,49.10460281,-122.82350922
"Suwon, KR",65.74123989218329,0.0,0.0,0.0,0.0,0.0,0.046,37.25973511,127.00894928
"Suzhou, CN",82.11320754716981,0.0,0.0,0.0,0.0,0.0,0.071,31.29903984,120.58530426
"Swansea, GB",34.96765498652291,34.80821917808219,17.28219178082192,3.0876712328767124,80.73424657534247,0.0,0.013,51.62158203,-3.94336891
"Sydney, AU",16.121293800539082,16.175342465753424,11.624657534246577,2.65041095890411,74.02520547945205,34.77731092436975,-0.0,-33.87319946,151.20959473
"Szczecin, PL",55.59183673469388,0.0,0.0,0.0,0.0,0.0,0.031,53.41689301,14.53232861
"Szeged, HU",54.58369098712446,53.23245614035088,18.73728813559322,3.2674418604651163,64.86162790697675,45.00980392156862,0.03,46.25361633,20.14613533
"São José dos Campos, BR",37.82747603833866,0.0,0.0,0.0,0.0,0.0,0.015,-23.18603897,-45.8866806
"São Paulo, BR",48.57142857142857,0.0,0.0,0.0,0.0,0.0,0.024,-23.53396988,-46.6288681
"Tabriz, IR",70.15950920245399,0.0,0.0,0.0,0.0,0.0,0.054,38.0739975,46.29619598
"Taichung, TW",48.74123989218329,0.0,0.0,0.0,0.0,0.0,0.024,24.16348839,120.64673615
"Tainan, TW",59.22102425876011,0.0,0.0,0.0,0.0,0.0,0.037,22.99162102,120.18503571
"Taipei, TW",40.67924528301887,0.0,0.0,0.0,0.0,0.0,0.018,25.03841209,121.56370544
"Taitung City, TW",22.87870619946092,0.0,0.0,0.0,0.0,0.0,0.004,22.75469398,121.146698
"Taiyuan, CN",105.80862533692722,0.0,0.0,0.0,0.0,0.0,0.103,37.87052155,112.54872131
"Takamatsu, JP",35.68733153638814,35.81095890410959,12.561643835616438,2.423013698630137,69.31589041095891,72.33644444444445,0.014,34.34473801,134.04478455
"Talca, CL",50.722371967654986,0.0,0.0,0.0,0.0,0.0,0.025,-35.42653275,-71.66603088
"Tallahassee, US",34.8733153638814,34.961643835616435,16.518105849582174,2.815068493150685,75.01890410958904,0.0,0.013,30.44074059,-84.27832794
"Tallinn, EE",19.16711590296496,0.0,0.0,0.0,0.0,0.0,0.002,59.44268799,24.75319672
"Tampere, FI",17.828729281767956,17.79494382022472,8.485875706214689,3.178611111111111,78.21805555555555,0.0,0.0,61.4974823,23.75724602
"Taoyuan City, TW",41.31266846361186,0.0,0.0,0.0,0.0,0.0,0.018,24.99289894,121.30096436
"Tarnów, PL",57.24932249322493,0.0,0.0,0.0,0.0,0.0,0.034,50.01572418,20.98659706
"Tashkent, UZ",96.50813008130082,0.0,0.0,0.0,0.0,0.0,0.092,41.31233597,69.27870941
"Tbilisi, GE",58.25067385444744,57.66849315068493,31.51506849315069,5.122191780821917,60.5,0.0,0.036,41.72249985,44.79249954
"Tehran, IR",104.55963302752292,0.0,0.0,0.0,0.0,0.0,0.102,35.68925095,51.38959885
"Tel Aviv, IL",64.61369863013698,0.0,0.0,0.0,0.0,0.0,0.045,32.08530045,34.78180695
"Temuco, CL",55.105121293800536,0.0,0.0,0.0,0.0,0.0,0.031,-38.73625946,-72.59054565
"Tepic, MX",42.36,0.0,0.0,0.0,0.0,0.0,0.019,21.50741386,-104.89379883
"Ternopil, UA",19.133105802047783,0.0,0.0,0.0,0.0,0.0,0.002,49.56063461,25.59867287
"The Bronx, US",25.01685393258427,24.754285714285714,0.0,6.422191780821919,64.22246575342464,0.0,0.007,40.8261528,-73.9202652
"The Hague, NL",36.36388140161725,36.46027397260274,17.621917808219177,4.682739726027397,80.09424657534247,0.0,0.015,52.08019638,4.31013298
"Thessaloníki, GR",53.99512195121951,0.0,0.0,0.0,0.0,0.0,0.028,40.64028168,22.93471909
"Thiruvananthapuram, IN",71.3076923076923,0.0,0.0,0.0,0.0,0.0,0.055,8.53037357,76.9295578
"Thrissur, IN",90.77197802197804,0.0,0.0,0.0,0.0,0.0,0.083,10.52390385,76.21225739
"Tianjin, CN",88.75202156334232,0.0,0.0,0.0,0.0,0.0,0.08,39.29473495,117.33511353
"Tokyo, JP",35.684636118598384,35.76438356164383,12.509589041095891,1.626027397260274,66.15808219178082,60.75363636363636,0.014,35.68992615,139.6917572
"Toluca, MX",80.84468664850137,0.0,0.0,0.0,0.0,0.0,0.068,19.29211617,-99.65578461
"Tomsk, RU",72.94117647058823,0.0,0.0,0.0,0.0,0.0,0.056,56.48840332,84.94683075
"Toronto, CA",26.380053908355794,26.24931506849315,0.0,3.012054794520548,71.45095890410958,0.0,0.007,43.65189362,-79.38171387
"Toulon, FR",30.572602739726022,0.0,0.0,0.0,0.0,0.0,0.01,43.12519073,5.93103886
"Toulouse, FR",39.28032345013477,0.0,0.0,0.0,0.0,0.0,0.017,43.6039505,1.44450903
"Tours, FR",35.77358490566038,0.0,0.0,0.0,0.0,0.0,0.014,47.39029312,0.688851
"Toyama, JP",32.539083557951486,32.78356164383562,10.265753424657534,2.2849315068493152,77.41260273972603,52.66886446886447,0.012,36.69999313,137.23001099
"Trabzon, TR",70.00859598853869,0.0,0.0,0.0,0.0,0.0,0.054,41.00207138,39.71921539
"Trieste, IT",43.65800865800866,0.0,0.0,0.0,0.0,0.0,0.02,45.65359879,13.77851582
"Trondheim, NO",20.09264305177112,0.0,0.0,0.0,0.0,0.0,0.003,63.4345665,10.39843941
"Tucson, US",22.288409703504044,22.263013698630136,18.068493150684933,2.0512328767123287,37.71260273972603,0.0,0.004,32.22187805,-110.97122192
"Turin, IT",57.30711610486891,0.0,0.0,0.0,0.0,0.0,0.034,45.06837463,7.68306589
"Turku, FI",17.201117318435752,17.181818181818183,9.110169491525424,3.081666666666666,78.30694444444444,0.0,0.0,60.45145798,22.26883125
"Tuzla, BA",76.63172804532577,0.0,0.0,0.0,0.0,0.0,0.062,44.53803635,18.67217636
"Ulan Bator, MN",68.85420054200542,0.0,0.0,0.0,0.0,0.0,0.05,47.92286682,106.92326355
"Ulsan, KR",53.12398921832884,0.0,0.0,0.0,0.0,0.0,0.028,35.54867554,129.31500244
"Uppsala, SE",16.688346883468835,0.0,0.0,0.0,0.0,0.0,-0.0,59.85813141,17.6446209
"Utrecht, NL",43.25876010781671,43.37260273972603,16.56986301369863,1.9636986301369863,74.23698630136987,0.0,0.02,52.09168243,5.12036324
"Utsunomiya, JP",35.86033519553072,35.97167138810198,12.309859154929578,2.4807365439093485,74.62478873239438,68.67984496124032,0.014,36.54997635,139.87001038
"Valencia, ES",37.85326086956522,0.0,0.0,0.0,0.0,0.0,0.015,39.47023773,-0.37680501
"Valladolid, ES",43.06353591160221,0.0,0.0,0.0,0.0,0.0,0.02,41.65294266,-4.72838402
"Valparaíso, CL",48.703504043126685,0.0,0.0,0.0,0.0,0.0,0.024,-33.04584503,-71.61967468
"Vancouver, CA",18.557065217391305,18.671270718232044,9.517906336088156,2.889041095890411,83.30876712328768,0.0,0.001,49.26356506,-123.13857269
"Vantaa, FI",23.116343490304708,22.983098591549297,10.756373937677054,5.74958217270195,76.29387186629526,0.0,0.005,60.29441071,25.04006767
"Vereeniging, ZA",63.01081081081081,0.0,0.0,0.0,0.0,0.0,0.043,-26.67301369,27.92876434
"Victoria, CA",24.13821138211382,24.146005509641878,0.0,2.792054794520548,80.54575342465753,0.0,0.006,48.42750168,-123.36725616
"Vienna, AT",37.8167115902965,0.0,0.0,0.0,0.0,0.0,0.015,48.2084465,16.37789536
"Vientiane, LA",72.30716723549489,0.0,0.0,0.0,0.0,0.0,0.056,17.9621582,102.6116333
"Visakhapatnam, IN",109.5828729281768,0.0,0.0,0.0,0.0,0.0,0.108,17.73463249,83.2729187
"Wakayama, JP",36.5633423180593,36.602739726027394,12.315068493150685,3.357808219178082,70.87506849315069,64.56777251184833,0.015,34.22311783,135.16770935
"Warsaw, PL",49.9159891598916,0.0,0.0,0.0,0.0,0.0,0.024,52.23497772,21.00849152
"Washington D.C., US",29.474393530997304,29.34520547945205,12.948936170212766,2.2230136986301368,69.79780821917808,0.0,0.009,38.89206314,-77.01991272
"Wellington, NZ",22.95945945945946,0.0,0.0,0.0,0.0,0.0,0.004,-41.25659943,174.75013733
"Wiesbaden, DE",34.84905660377358,0.0,0.0,0.0,0.0,0.0,0.013,50.08405685,8.23980045
"Willemstad, CW",33.03225806451613,0.0,0.0,0.0,0.0,0.0,0.013,12.10666943,-68.93512726
"Winnipeg, CA",24.05,23.921768707482997,3.59106529209622,4.083006535947713,72.31209150326798,0.0,0.006,49.90049744,-97.13931274
"Wollongong, AU",15.619946091644206,15.657534246575343,12.41095890410959,4.193150684931507,74.33945205479452,22.92146341463415,0.0,-34.42710114,150.89320374
"Worcester, ZA",27.637735849056604,0.0,0.0,0.0,0.0,0.0,0.008,-33.6450386,19.44374847
"Wrocław, PL",58.50948509485095,0.0,0.0,0.0,0.0,0.0,0.036,51.11054993,17.02555847
"Wuxi, CN",81.07277628032345,0.0,0.0,0.0,0.0,0.0,0.07,31.49130249,120.31233978
"Xiamen, CN",57.15094339622642,0.0,0.0,0.0,0.0,0.0,0.034,24.47950935,118.08947754
"Xining, CN",83.50404312668464,0.0,0.0,0.0,0.0,0.0,0.073,36.61708832,101.77806091
"Xinxiang, CN",111.4690026954178,0.0,0.0,0.0,0.0,0.0,0.111,35.30323029,113.92675018
"Xi’an, CN",113.6576819407008,0.0,0.0,0.0,0.0,0.0,0.113,34.34209061,108.93976593
"Xuchang, CN",111.1132075471698,0.0,0.0,0.0,0.0,0.0,0.111,34.03723907,113.85216522
"Yangon, MM",60.108823529411765,0.0,0.0,0.0,0.0,0.0,0.039,16.86223793,96.12097931
"Yeosu, KR",50.39083557951483,0.0,0.0,0.0,0.0,0.0,0.025,34.7382431,127.74147034
"Yinchuan, CN",90.09164420485176,0.0,0.0,0.0,0.0,0.0,0.083,38.48728943,106.23084259
"Yokohama, JP",32.301886792452834,32.45753424657534,12.164383561643836,2.5191780821917806,69.46082191780822,55.48181818181818,0.012,35.46009445,139.57756042
"Yunfu, CN",67.2021563342318,0.0,0.0,0.0,0.0,0.0,0.049,22.9149704,112.04466248
"Zagreb, HR",66.82997118155619,66.42815249266862,18.62326869806094,0.7971509971509971,66.55863013698631,0.0,0.048,45.76078415,16.06326866
"Zanjān, IR",65.21824104234528,0.0,0.0,0.0,0.0,0.0,0.046,36.6699791,48.48593903
"Zaragoza, ES",31.057142857142857,0.0,0.0,0.0,0.0,0.0,0.011,41.65683746,-0.87942499
"Zenica, BA",59.322884012539184,0.0,0.0,0.0,0.0,0.0,0.037,44.19868469,17.91249657
"Zhengzhou, CN",106.4690026954178,0.0,0.0,0.0,0.0,0.0,0.104,34.74718857,113.62535095
"Zhuzhou, CN",95.53369272237197,0.0,0.0,0.0,0.0,0.0,0.09,27.82766914,113.13395691
"Zürich, CH",2.0876712328767124,2.097493036211699,12.96986301369863,1.6290410958904111,73.16986301369863,0.0,0.0,47.36700058,8.55000019
"Ürümqi, CN",97.47708894878706,0.0,0.0,0.0,0.0,0.0,0.093,43.50907898,87.46435547
"İzmir, TR",76.55795148247978,0.0,0.0,0.0,0.0,0.0,0.062,38.41872406,27.12960052
"İzmit, TR",64.03504043126685,0.0,0.0,0.0,0.0,0.0,0.045,40.76556015,29.94055939
"Łódź, PL",46.97832817337461,0.0,0.0,0.0,0.0,0.0,0.022,51.75905228,19.45860291
"Ōita, JP",39.38814016172507,39.48219178082192,12.745205479452055,2.425205479452055,71.84301369863014,68.80264317180617,0.017,33.24322891,131.59790039
"Ḩawallī, KW",122.53468208092484,0.0,0.0,0.0,0.0,0.0,0.124,29.33664703,48.01917267
